stop_id,stop_code,stop_name,stop_desc,stop_lat,stop_lon,zone_id,stop_url
1455,1455,Bogdanki/Szkoła(1455),,52.947070,23.150071,2,
1212,1212,Klewinowo Nowe(1212),,52.982635,23.179342,2,
1454,1454,Baranki/Pętla(1454),,52.945986,23.113654,2,
1211,1211,Klewinowo/Pętla(1211),,52.980355,23.189040,2,
1453,1453,Bogdanki/Wieś(1453),,52.943957,23.154150,2,
800,800,Wiosenna(800),,53.104168,23.152347,1,
801,801,Izabelin/Dworska(801),,53.086802,23.157292,2,
802,802,Olmonty/Jaworowa(802),,53.084243,23.161650,2,
803,803,Izabelin/Dworska(803),,53.087048,23.157038,2,
804,804,Porosły/Kolonia(804),,53.150493,23.050812,2,
805,805,Nowosiółki(805),,53.157047,23.012495,2,
806,806,Choroszcz/Mickiewicza Nexmar (B)(806),,53.152407,23.004198,2,
807,807,Choroszcz/Mickiewicza Nexmar(807),,53.152275,23.004122,2,
808,808,Łyski/Fabryka Okien(808),,53.154198,23.028783,2,
809,809,Porosły/Kolonia(809),,53.150448,23.051870,2,
1477,1477,Złotniki/Kolonia(1477),,52.965524,23.156829,2,
810,810,Hryniewicze/Śródlesie (J)(810),,53.084322,23.133390,1,
811,811,Hryniewicze (J)(811),,53.076900,23.137611,1,
812,812,Hryniewicze/MPRD (J)(812),,53.067720,23.136731,1,
813,813,Hryniewicze/Wysypisko (J)(813),,53.060518,23.140867,1,
814,814,Lewickie/PKS (J)(814),,53.049237,23.142978,1,
815,815,Lewickie/Firma CHM (J)(815),,53.044123,23.141482,1,
816,816,Juchnowiec/PKS(816),,53.017244,23.139538,2,
817,817,Lewickie/Firma CHM (B)(817),,53.044947,23.141879,1,
818,818,Lewickie/PKS (B)(818),,53.049256,23.143129,1,
819,819,Hryniewicze/Wysypisko (B)(819),,53.061636,23.139377,1,
820,820,Hryniewicze/MPRD (B)(820),,53.068746,23.136981,1,
821,821,Hryniewicze (B)(821),,53.079615,23.136424,1,
822,822,Hryniewicze/Śródlesie (B)(822),,53.083984,23.133601,1,
823,823,Lewickie/Ogródki Działkowe(J)(823),,53.033854,23.141026,2,
824,824,Lewickie/Ogródki Działkowe(B)(824),,53.034915,23.140704,2,
825,825,Juchnowiec/Wieś(825),,53.009164,23.131670,2,
826,826,Juchnowiec/Pętla(826),,53.004197,23.136818,2,
827,827,Juchnowiec/Mleczarnia(827),,53.009467,23.131503,2,
829,829,Juchnowiec/Młyn(829),,53.013571,23.136376,2,
1263,1263,Kleosin/Osiedle(1263),,53.104086,23.117547,1,
1262,1262,Kleosin/Kraszewskiego(1262),,53.101736,23.117288,1,
1261,1261,Kleosin/Kraszewskiego(1261),,53.102105,23.116867,1,
1260,1260,Kleosin/Osiedle(1260),,53.103524,23.117455,1,
830,830,Juchnowiec/Młyn(830),,53.015530,23.138169,2,
831,831,Juchnowiec/Rumejki (B)(831),,53.025898,23.142416,2,
832,832,Juchnowiec/Rumejki (J)(832),,53.024340,23.141985,2,
833,833,Lewickie-Kolonia (J)(833),,53.055735,23.144818,1,
834,834,Lewickie-Kolonia (B)(834),,53.056682,23.144996,1,
835,835,Juchnowiec(835),,53.003988,23.137044,2,
836,836,Wólka(836),,52.999940,23.151498,2,
837,837,Biele/Pętla(837),,52.982175,23.147270,2,
838,838,Juchnowiec D./Wólka(838),,53.003279,23.143029,2,
839,839,Wólka (B)(839),,53.001101,23.150703,2,
840,840,Wrocławska/Zodiak(840),,53.122000,23.088895,2,
841,841,Jurowiecka/Poleska(841),,53.140939,23.158880,1,
600,600,al. Jana Pawła II/Pomnik(600),,53.141298,23.099857,1,
601,601,al. Jana Pawła II/Bacieczki(601),,53.143310,23.088936,1,
843,843,Boboli/Cmentarz(843),,53.135462,23.083277,1,
602,602,al. Jana Pawła II/Centrum Handlowe(602),,53.137958,23.117022,1,
844,844,42. Pułku Piechoty/Nowa Wygoda II(844),,53.141154,23.229568,1,
603,603,al. Jana Pawła II/Stacja Paliw(603),,53.138585,23.114980,1,
845,845,Klepacka/Kościół(845),,53.112947,23.086917,1,
604,604,al. Jana Pawła II/NSZ(604),,53.144547,23.083411,1,
605,605,al. Jana Pawła II/al. Niepodległości(605),,53.143091,23.088552,1,
606,606,Żeromskiego/Cerkiew Św. Jerzego(606),,53.110123,23.130898,1,
607,607,Żeromskiego/Pułaskiego(607),,53.110145,23.131198,1,
849,849,Zawady/Pętla(849),,53.160998,23.113844,1,
608,608,Transportowa/Składowa(608),,53.113505,23.128993,1,
609,609,Transportowa/Ekologiczna(609),,53.110940,23.118610,1,
850,850,Stadion Miejski/Pętla(850),,53.104852,23.152644,1,
851,851,Porosły/Stacja Paliw(851),,53.148766,23.057120,2,
852,852,Łyski(852),,53.151608,23.043285,2,
610,610,Transportowa/Ekologiczna(610),,53.111062,23.120052,1,
853,853,Łyski/Fabryka Okien(853),,53.155618,23.026327,2,
611,611,Transportowa/Składowa(611),,53.112688,23.126505,1,
854,854,Choroszcz/Powst.Styczniowego(854),,53.146672,22.989773,2,
612,612,Transportowa/Straż Pożarna(612),,53.112462,23.125395,1,
855,855,Choroszcz/pl. Brodowicza Szpital(855),,53.152292,22.985857,2,
613,613,Suchowolca/Proroka Eliasza(613),,53.108145,23.211797,1,
614,614,Zabłudowska/Zalesie(614),,53.100090,23.226755,1,
856,856,Choroszcz/Rynek 11 Listopada(856),,53.142783,22.987848,2,
615,615,Zabłudowska/Kolonia Dojlidy(615),,53.094027,23.237830,1,
857,857,Choroszcz/Rynek 11 Listopada(857),,53.142726,22.987854,2,
858,858,Choroszcz/Szpital(858),,53.152527,22.986170,2,
616,616,Gminna/Zabłudowska(616),,53.092806,23.240888,1,
859,859,Choroszcz/Szkoła(859),,53.145432,22.991237,2,
617,617,Zabłudowska/Gminna(617),,53.091340,23.242702,1,
618,618,Zabłudowska/Stoczni Gdańskiej(618),,53.097247,23.232297,1,
619,619,Zabłudowska/Masztowa(619),,53.101025,23.225093,1,
860,860,Nowosiółki(860),,53.157711,23.011358,2,
861,861,Łyski(861),,53.151265,23.044617,2,
620,620,Suchowolca/Dojlidy Cmentarz II (K)(620),,53.104002,23.219497,1,
862,862,Porosły/Stacja Paliw(862),,53.148003,23.060701,2,
621,621,Zabłudowska/Kolonia Dojlidy (K)(621),,53.102662,23.222033,1,
863,863,Choroszcz/Sienkiewicza(863),,53.148597,22.986244,2,
864,864,Choroszcz/Akacjowa(864),,53.148377,22.987416,2,
622,622,Zabłudowska/Stoczni Gdańskiej(622),,53.097165,23.232067,1,
623,623,Kuriany/PKS (K)(623),,53.081667,23.258050,2,
865,865,Choroszcz/Mickiewicza(865),,53.146520,22.994657,2,
866,866,Karakule/Bagnowska(866),,53.170287,23.260088,1,
624,624,Kuriany I(624),,53.083949,23.256935,2,
867,867,Karakule/Turystyczna(867),,53.174215,23.260910,1,
625,625,Kuriany (B)(625),,53.078120,23.261368,2,
868,868,Ogrodniczki/Szkoła(868),,53.183298,23.262777,1,
869,869,Ogrodniczki/Szkoła(869),,53.183752,23.262495,1,
627,627,Zabłudowska/Zagórki(627),,53.095100,23.236222,1,
628,628,Kuriany II(628),,53.087334,23.255795,2,
629,629,Suchowolca/Ordynacka(629),,53.103953,23.219860,1,
870,870,Karakule/Wąska(870),,53.174733,23.261007,1,
871,871,Karakule/Bagnowska(871),,53.169947,23.259972,1,
630,630,Suchowolca/Stacja Paliw(630),,53.106932,23.214308,1,
872,872,Solniczki I(872),,53.071334,23.208047,2,
631,631,Suchowolca/Cmentarz Prawosławny(631),,53.108212,23.212060,1,
873,873,Nowodworce(873),,53.190650,23.238616,2,
874,874,Ogrodniczki/Polna (C)(874),,53.184860,23.270772,1,
632,632,Suchowolca/Kościół (C)(632),,53.110745,23.207487,1,
875,875,Ogrodniczki/Tartak (C)(875),,53.182318,23.275135,1,
633,633,Stoczni Gdańskiej/Zabłudowska(633),,53.095660,23.229923,1,
876,876,Ciasne(876),,53.172777,23.288062,1,
634,634,Stoczni Gdańskiej/Wodna(634),,53.093908,23.224592,1,
877,877,Ogrodniczki/Tartak (B)(877),,53.182673,23.274875,1,
635,635,Stoczni Gdańskiej/Kościół(635),,53.094018,23.216258,1,
878,878,Ogrodniczki/Polna (B)(878),,53.185083,23.270617,1,
636,636,Stoczni Gdańskiej/Kościół(636),,53.093958,23.217748,1,
637,637,Stoczni Gdańskiej/Milowa(637),,53.094207,23.226373,1,
638,638,Stoczni Gdańskiej/Zabłudowska(638),,53.096140,23.231248,1,
880,880,Wasilków/Rynek(880),,53.198702,23.207127,2,
881,881,Centrum Przydworcowe st. 1(881),,53.133265,23.136033,1,
640,640,Kołłątaja/Dworska(640),,53.144978,23.100473,1,
882,882,Centrum Przydworcowe st. 2(882),,53.133183,23.136189,1,
641,641,Kołłątaja/Bacieczki(641),,53.148213,23.091402,1,
883,883,Centrum Przydworcowe st. 3(883),,53.133087,23.136262,1,
400,400,Raginisa/Uśmiechu(400),,53.167211,23.207956,1,
642,642,Kołłątaja/KEN(642),,53.151882,23.089402,1,
884,884,Centrum Przydworcowe st. 4(884),,53.133120,23.136800,1,
401,401,Raginisa/Uśmiechu(401),,53.166247,23.205532,1,
643,643,Kołłątaja/Mackiewicza(643),,53.150701,23.089614,1,
402,402,Raginisa/Familijna(402),,53.162600,23.200831,1,
644,644,Kołłątaja/Bacieczki(644),,53.147236,23.092430,1,
403,403,Raginisa/Kolbego(403),,53.160038,23.198410,1,
645,645,Kołłątaja/Dworska (C)(645),,53.144607,23.102545,1,
404,404,Raginisa/Cmentarz Farny(404),,53.152383,23.190527,1,
646,646,KEN/Pietkuna(646),,53.150653,23.086717,1,
405,405,Raginisa/Ogródki Działkowe(405),,53.169777,23.213842,1,
647,647,Wasilków/Dolina Cisów(647),,53.181408,23.187172,1,
406,406,Raginisa/Wysockiego(406),,53.149937,23.186770,1,
648,648,Zawady(648),,53.164665,23.110967,1,
649,649,Zawady(649),,53.164143,23.111342,1,
408,408,Karakule/Cmentarz(408),,53.176658,23.245493,1,
409,409,Ogrodniczki/Pętla(409),,53.188275,23.267630,1,
650,650,Zawady/Pętla(650),,53.161142,23.113688,1,
651,651,1000-lecia PP/Wileńska(651),,53.154340,23.152807,1,
893,893,Juchnowiec Dolny/Wólka(893),,53.003282,23.143270,2,
410,410,Ogrodniczki/Jeziorna(410),,53.188280,23.267310,1,
652,652,Wiosenna/Słoneczna(652),,53.108452,23.149365,1,
894,894,Solniczki II(894),,53.063400,23.210173,2,
653,653,Ignatki/Przemysłowa(653),,53.065732,23.093113,2,
411,411,Karakule/Kościół(411),,53.179687,23.243594,1,
654,654,Lodowa/Chłodna(654),,53.165463,23.118442,1,
412,412,Nowodworce PKS(412),,53.181159,23.241234,1,
413,413,Raginisa/Trawiasta(413),,53.155505,23.194290,1,
655,655,Lodowa/Zamoyskiego(655),,53.162692,23.120968,1,
414,414,Raginisa/Ogródki Działkowe(414),,53.169137,23.212028,1,
656,656,Lodowa/Zamoyskiego(656),,53.163325,23.120503,1,
657,657,Lodowa/Skrzetuskiego(657),,53.166570,23.117625,1,
415,415,Nowodworce/Leszczynowa(415),,53.177878,23.227914,1,
416,416,Sienkiewicza/Rynek Kościuszki(416),,53.131820,23.160740,1,
658,658,Ignatki/Zakłady(658),,53.068403,23.085716,2,
417,417,Sienkiewicza/Rzeka Biała (417),,53.135413,23.164630,1,
659,659,Słoneczna/Ciołkowskiego(659),,53.105991,23.151205,1,
418,418,Sienkiewicza/Komenda Woj. Policji(418),,53.138597,23.169941,1,
419,419,Sienkiewicza/Ryska(419),,53.141154,23.174136,1,
660,660,Ignatki/Zakłady(660),,53.068294,23.086197,2,
661,661,Ignatki/Przemysłowa(661),,53.065424,23.093736,2,
420,420,Sienkiewicza/Ryska(420),,53.140616,23.172894,1,
662,662,Karskiego/Oliwkowa (Z)(662),,53.158178,23.125611,1,
421,421,Sienkiewicza/Ogrodowa(421),,53.136963,23.166778,1,
663,663,Karskiego/Oliwkowa(663),,53.158014,23.126672,1,
422,422,Sienkiewicza/Białówny(422),,53.133234,23.161063,1,
664,664,Dojlidy Górne/Ananasowa(664),,53.081698,23.209195,1,
423,423,Świętokrzyska/Gen. Hallera(423),,53.150556,23.137554,1,
665,665,Dojlidy Górne/Cytrynowa(665),,53.082878,23.209370,1,
424,424,Sienkiewicza/Akademia Teatralna(424),,53.133784,23.161744,1,
666,666,Sybiraków/Pętla(666),,53.130612,23.202298,1,
425,425,Nowodworce/Zaciszna(425),,53.178197,23.229694,1,
426,426,Sikorskiego/Cerk. Zm. Pańskiego(426),,53.131013,23.099495,1,
668,668,Kazimierza Wielkiego/Gen. Sulika(668),,53.141343,23.201892,1,
427,427,Sikorskiego/Witosa(427),,53.134308,23.101888,1,
669,669,Piastowska/Gen. Sulika(669),,53.139592,23.199563,1,
428,428,Sikorskiego/Pętla(428),,53.134942,23.101802,1,
429,429,Sikorskiego/Batalionów Chłopskich(429),,53.129043,23.098113,1,
670,670,Zwierzyniecka/Cmentarz Wojskowy(670),,53.119040,23.160488,1,
671,671,Św. Ojca Pio/Białowieska(671),,53.118375,23.167763,1,
430,430,Popiełuszki/Sikorskiego(430),,53.127262,23.096628,1,
672,672,Św. Ojca Pio/Podleśna(672),,53.119915,23.172968,1,
431,431,Sikorskiego/Upalna(431),,53.128622,23.098433,1,
673,673,Zwierzyniecka/Akcent ZOO(673),,53.118532,23.166160,1,
674,674,Zwierzyniecka/11 Listopada(674),,53.119393,23.158625,1,
432,432,Sikorskiego/Biawar(432),,53.139282,23.106818,1,
675,675,Piastowska/Piasta(675),,53.135958,23.196858,1,
433,433,Sikorskiego/Pętla(433),,53.135026,23.102137,1,
676,676,Kazimierza Wielkiego/42. Pułku Piechoty(676),,53.143380,23.201660,1,
677,677,Kazimierza Wielkiego/42. Pułku Piechoty(677),,53.144718,23.201963,1,
435,435,Klepacka/Graniczna(435),,53.111594,23.081034,1,
436,436,Składowa/UM(436),,53.114264,23.129573,1,
678,678,Kazimierza Wielkiego/Chełmońskiego(678),,53.148107,23.201523,1,
437,437,Składowa/Stacja Paliw(437),,53.118032,23.126272,1,
679,679,Kazimierza Wielkiego/Chełmońskiego(679),,53.149195,23.202005,1,
438,438,Składowa/Tunel(438),,53.122452,23.122487,1,
439,439,Składowa/Octowa(439),,53.122705,23.121807,1,
680,680,Kazimierza Wielkiego/Antoniewicza(680),,53.151720,23.201913,1,
681,681,Kazimierza Wielkiego/Antoniewicza(681),,53.152710,23.202380,1,
440,440,Składowa/Hurtowa(440),,53.117607,23.126200,1,
682,682,Kazimierza Wielkiego/Trawiasta(682),,53.154752,23.202268,1,
683,683,Żyzna/Pętla(683),,53.152622,23.201615,1,
200,200,42. Pułku Piechoty/Brzechwy(200),,53.142873,23.211348,1,
684,684,Kazimierza Wielkiego/Trawiasta(684),,53.155867,23.202752,1,
442,442,Sosnowskiego/Grunwaldzka(442),,53.129988,23.145415,1,
201,201,42. Pułku Piechoty/Chabrowa(201),,53.144288,23.200600,1,
685,685,Kazimierza Wielkiego/Raginisa(685),,53.159952,23.199645,1,
443,443,Kalinowskiego/Opera Podlaska(443),,53.131448,23.150005,1,
202,202,42. Pułku Piechoty/Robotnicza(202),,53.144308,23.194377,1,
686,686,Krzywoustego/Raginisa(686),,53.161180,23.198230,1,
444,444,Sosnowskiego/Wyszyńskiego(444),,53.128916,23.144487,1,
203,203,Gen. Sosabowskiego/Krańcowa(203),,53.144083,23.189198,1,
445,445,Plac NZS(445),,53.130842,23.154880,1,
687,687,Krzywoustego/Wysockiego(687),,53.167258,23.188307,1,
204,204,42. Pułku Piechoty/Hotel(204),,53.144217,23.192573,1,
446,446,Kalinowskiego/Teatr Lalek(446),,53.131287,23.152345,1,
688,688,Halicka/Leśnej Jagody(688),,53.076562,23.218578,1,
447,447,Skłodowskiej/Książnica Podlaska(447),,53.127907,23.159178,1,
689,689,Halicka/Lubczykowa(689),,53.076765,23.217495,1,
206,206,Lipowa/Św. Rocha(206),,53.133954,23.149067,1,
448,448,Skłodowskiej/Hortex(448),,53.126532,23.161228,1,
207,207,Świętojańska/Akademicka(207),,53.125427,23.167538,1,
449,449,Liniarskiego/Plac NZS(449),,53.131257,23.155569,1,
208,208,Świętojańska/Galeria Alfa(208),,53.125865,23.168595,1,
690,690,Kuronia/Suchowolca(690),,53.108337,23.210190,1,
691,691,Proroka Eliasza/Kuronia(691),,53.105582,23.209965,1,
692,692,Kuronia/Proroka Eliasza(692),,53.107352,23.209230,1,
450,450,Kolbego/Raginisa(450),,53.159833,23.196625,1,
451,451,Starosielce PKP/Pętla(451),,53.121890,23.086710,1,
693,693,Niewodnica(693),,53.071652,23.083577,2,
210,210,Lipowa/Nowy Świat(210),,53.133354,23.152885,1,
452,452,Starosielce PKP/Pętla(452),,53.122104,23.087117,1,
694,694,Brzoskwiniowa/Mickiewicza(694),,53.086237,23.201513,1,
211,211,pl. Niepodległości/Kościół Św. Rocha(211),,53.134983,23.146577,1,
453,453,Kuronia/Myśliwska(453),,53.104944,23.197828,1,
695,695,Brzoskwiniowa/Mickiewicza(695),,53.085942,23.200942,1,
454,454,Kuronia/Kalicińskiego(454),,53.103992,23.205615,1,
212,212,Waszyngtona/Szpital Uniwersytecki(212),,53.126041,23.158882,1,
696,696,Dojlidy Górne/Brzoskwiniowa (C)(696),,53.087707,23.210392,1,
455,455,Kuronia/Browar(455),,53.104277,23.203748,1,
213,213,Waszyngtona/Szpital DSK(213),,53.124837,23.155468,1,
697,697,Dojlidy Górne/Grabowa (D)(697),,53.092737,23.211265,1,
456,456,Swobodna(456),,53.144205,23.106978,1,
698,698,Mickiewicza/Wiewiórcza(698),,53.110448,23.181212,1,
214,214,Kombatantów(214),,53.150725,23.158455,1,
457,457,Swobodna/Łagodna(457),,53.147558,23.108603,1,
699,699,Mickiewicza/Ogródki Działkowe (C)(699),,53.101557,23.187722,1,
458,458,Swobodna/Szeroka(458),,53.148005,23.109158,1,
216,216,11 Listopada/Szpital(216),,53.123297,23.163018,1,
459,459,Swobodna/Wysoki Stoczek(459),,53.144056,23.106646,1,
217,217,11 Listopada/Stadion(217),,53.120773,23.160847,1,
218,218,11 Listopada/Park(218),,53.121547,23.161637,1,
219,219,Klepacka/Lawendowa(219),,53.116443,23.096236,1,
460,460,Świętokrzyska/Orzechowa(460),,53.155338,23.139355,1,
461,461,Gen. Andersa/Fabryka Mebli(461),,53.148135,23.177668,1,
220,220,Kaczorowskiego/Cieszyńska(220),,53.126573,23.150428,1,
462,462,Gen. Andersa/Bitwy Białostockiej(462),,53.151432,23.169027,1,
221,221,Kaczorowskiego/Waszyngtona(221),,53.124565,23.149197,1,
463,463,Świętokrzyska/Orzechowa(463),,53.156381,23.140249,1,
222,222,Kaczorowskiego/Opera Podlaska(222),,53.127445,23.151632,1,
464,464,Gen. Andersa/Fabryka Dywanów(464),,53.154245,23.161492,1,
223,223,Kaczorowskiego/Wyszyńskiego(223),,53.123667,23.148258,1,
465,465,Gen. Andersa/1000-lecia PP(465),,53.158493,23.153223,1,
224,224,Kopernika/Kaczorowskiego(224),,53.121693,23.145387,1,
466,466,Świętokrzyska/Gen. Maczka(466),,53.158657,23.140928,1,
225,225,Meksykańska/IPN (C)(225),,53.120117,23.084145,1,
467,467,Gen. Kleeberga(467),,53.157095,23.089909,1,
226,226,Meksykańska/IPN(226),,53.120772,23.084147,1,
468,468,Gen. Kleeberga/Wróblewskiego(468),,53.155997,23.088194,1,
227,227,Nowosielska/Węgierska(227),,53.123415,23.081752,1,
469,469,Gen. Maczka/Świętokrzyska(469),,53.159292,23.142392,1,
228,228,Nowosielska/Osiedle KZKS(228),,53.127368,23.077192,1,
229,229,Nowosielska/Osiedle KZKS(229),,53.128098,23.076870,1,
470,470,Gen. Andersa/1000-lecia PP(470),,53.158248,23.152380,1,
471,471,Gen. Andersa/Fabryka Dywanów(471),,53.154419,23.159689,1,
230,230,Nowosielska/Węgierska(230),,53.123958,23.080963,1,
472,472,Elektrociepłownia/Pętla(472),,53.152601,23.166406,1,
231,231,Meksykańska/Rumuńska(231),,53.114872,23.082535,1,
473,473,Gen. Andersa/Bitwy Białostockiej(473),,53.152251,23.165697,1,
232,232,Klepacze/Sklep(232),,53.108450,23.075492,1,
474,474,Gen. Andersa/Elektrociepłownia(474),,53.151243,23.168506,1,
233,233,Klepacze/Pętla(233),,53.106305,23.068182,2,
475,475,Gen. Andersa/Fabryka Mebli (475),,53.147833,23.177850,1,
234,234,Klepacze/Remiza(234),,53.108835,23.076163,1,
476,476,Gen. Andersa/Wasilkowska(476),,53.146647,23.181658,1,
235,235,Meksykańska/Watykańska(235),,53.115528,23.083160,1,
477,477,Elektrociepłownia/Pętla(477),,53.152849,23.165773,1,
236,236,Mickiewicza/Uniwersytet Medyczny(236),,53.129857,23.167632,1,
478,478,Gen. Sosabowskiego/Wasilkowska(478),,53.145380,23.183611,1,
237,237,Mickiewicza/Grottgera(237),,53.123757,23.172363,1,
479,479,Kapralska/Pionierska(479),,53.142557,23.185940,1,
238,238,Mickiewicza/Kościół Św. Ojca Pio(238),,53.119597,23.174685,1,
239,239,Mickiewicza/Zwierzyniecka(239),,53.116585,23.176670,1,
480,480,Traugutta/Wasilkowska(480),,53.142348,23.180670,1,
481,481,Traugutta/Dworzec Fabryczny(481),,53.141165,23.184343,1,
240,240,Mickiewicza/Ciołkowskiego(240),,53.113712,23.178755,1,
482,482,Kapralska/Pusta(482),,53.143393,23.186293,1,
241,241,Mickiewicza/Wiewiórcza(241),,53.111570,23.180617,1,
483,483,Traugutta/Kościół(483),,53.141502,23.183486,1,
242,242,Mickiewicza/Jagiellońska(242),,53.116293,23.177107,1,
484,484,Traugutta/Wasilkowska(484),,53.143208,23.179528,1,
243,243,Mickiewicza/Miłosza(243),,53.120861,23.174179,1,
001,001,Antoniuk Fabryczny/Swobodna(001),,53.150615,23.111835,1,
485,485,Towarowa/Piastowska(485),,53.135812,23.195113,1,
244,244,Mickiewicza/Orzeszkowej(244),,53.125199,23.171722,1,
002,002,Antoniuk Fabryczny/Konstytucji 3 Maja(002),,53.147935,23.118668,1,
486,486,Towarowa/Kraszewskiego(486),,53.139717,23.183498,1,
245,245,Mickiewicza/Urząd Wojewódzki(245),,53.128405,23.169167,1,
003,003,Antoniuk Fabryczny/Ogrodniczki(003),,53.145457,23.128130,1,
487,487,Towarowa/Pętla(487),,53.138308,23.186757,1,
004,004,Antoniukowska/Świętokrzyska(004),,53.144570,23.131963,1,
246,246,Mickiewicza/Liceum(246),,53.108203,23.182857,1,
488,488,Towarowa/Dworzec Fabryczny(488),,53.138410,23.187273,1,
489,489,Towarowa/Parking(489),,53.137145,23.190772,1,
247,247,Kuronia/Mickiewicza(247),,53.105665,23.186123,1,
006,006,Antoniuk Fabryczny/Jarzębinowa(006),,53.150795,23.111927,1,
248,248,Mickiewicza/Sąd Rejonowy(248),,53.106153,23.184687,1,
007,007,Antoniuk Fabryczny/Gajowa(007),,53.146318,23.125422,1,
249,249,Mickiewicza/Liceum(249),,53.109170,23.182482,1,
1907,1907,Niewodnica Nargilewska(1907),,53.059329,23.210740,2,
008,008,Boh. M. Cassino/Łomżyńska(008),,53.129186,23.136133,1,
009,009,Sowlańska/Piaskowa(009),,53.120105,23.210215,1,
1900,1900,Kuriany III (K)(1900),,53.089560,23.254749,2,
490,490,Towarowa/Garaże(490),,53.136643,23.192675,1,
491,491,Towarowa/Daleka(491),,53.139192,23.185393,1,
250,250,Waszyngtona/Wesoła(250),,53.123823,23.150430,1,
492,492,Towarowa/Kraszewskiego(492),,53.140485,23.181700,1,
493,493,Wiosenna/Kawaleryjska(493),,53.111851,23.147555,1,
251,251,Mieszka I/Apteka(251),,53.133587,23.191238,1,
252,252,Mieszka I/Szkoła(252),,53.134913,23.187343,1,
494,494,Wiosenna/11 Listopada(494),,53.109559,23.149218,1,
010,010,Wierzbowa/Ordonówny(010),,53.141925,23.128954,1,
495,495,Transportowa/Pętla(495),,53.109098,23.115307,1,
253,253,Piasta/Skorupska(253),,53.134757,23.180963,1,
011,011,Antoniukowska/Wierzbowa(011),,53.143127,23.133978,1,
254,254,Słonimska/Urząd Miejski(254),,53.134102,23.173760,1,
012,012,Antoniukowska/Knyszyńska(012),,53.140238,23.138163,1,
496,496,1000-lecia PP/Zakłady Graficzne(496),,53.143928,23.157548,1,
255,255,Mieszka I/Piastowska(255),,53.133115,23.192292,1,
013,013,Antoniukowska/Owsiana(013),,53.141213,23.137112,1,
497,497,1000-lecia PP/Bitwy Białostockiej(497),,53.146180,23.157331,1,
014,014,Antoniukowska/Narewska(014),,53.142756,23.134927,1,
256,256,Słonimska/Urząd Miejski(256),,53.134231,23.174632,1,
498,498,1000-lecia PP/Kombatantów(498),,53.151222,23.154668,1,
015,015,Nowowarszawska/Ciołkowskiego(015),,53.120673,23.195381,1,
257,257,Piasta(257),,53.134723,23.183126,1,
499,499,1000-lecia PP/Wileńska(499),,53.155373,23.152478,1,
258,258,Wierzbowa/Rondo Reagana(258),,53.138491,23.121491,1,
016,016,Armii Krajowej/Powstańców(016),,53.129600,23.094653,1,
259,259,Raginisa/Gwiazdkowa(259),,53.167991,23.209442,1,
017,017,Magnoliowa/Szkoła(017),,53.119725,23.095340,1,
018,018,Armii Krajowej/Szkoła(018),,53.132223,23.089377,1,
019,019,Armii Krajowej/Batalionów Chłopskich(019),,53.128713,23.095775,1,
260,260,Niemeńska/Berezyńska(260),,53.168405,23.218348,1,
261,261,Niemeńska/Czarnej Hańczy(261),,53.166022,23.222252,1,
020,020,Leśna Dolina/Pętla(020),,53.132613,23.086973,1,
263,263,Niemeńska/Wiślana(263),,53.164237,23.223100,1,
021,021,Leśna Dolina/Pętla(021),,53.132317,23.087395,1,
264,264,Niemeńska I (C)(264),,53.167542,23.221190,1,
022,022,Magnoliowa/al. Niepodległości(022),,53.119167,23.094719,1,
265,265,Niemeńska II (C)(265),,53.168845,23.213672,1,
1920,1920,Kuriany IV (K)(1920),,53.093410,23.254165,2,
023,023,Boboli/Cmentarz(023),,53.135462,23.083277,1,
024,024,Baranowicka/Plażowa(024),,53.123155,23.219113,1,
266,266,Wrocławska/Galeria Zielone Wzgórze(266),,53.126305,23.096950,1,
025,025,Ciołkowskiego/Wielkopolska(025),,53.122028,23.201610,1,
267,267,al. Niepodległości/Lawendowa(267),,53.117342,23.097022,1,
026,026,Baranowicka/Ciołkowskiego(026),,53.122142,23.204633,1,
268,268,al. Niepodległości/Wrocławska(268),,53.121529,23.090500,1,
027,027,Baranowicka/Sowlańska(027),,53.122423,23.209038,1,
028,028,Baranowicka/Gródecka(028),,53.122842,23.214285,1,
029,029,Baranowicka/Zaścianki(029),,53.124568,23.228618,1,
270,270,Miłosza/Kołodziejska(270),,53.122713,23.180442,1,
030,030,Niedźwiedzia/Wilcza(030),,53.116360,23.189075,1,
272,272,al. Niepodległości/Lawendowa(272),,53.117527,23.097534,1,
031,031,Baranowicka/Zaścianki(031),,53.124138,23.227005,1,
273,273,Niewodnicka/Pętla(273),,53.111788,23.080639,1,
032,032,Baranowicka/Plażowa(032),,53.123118,23.216917,1,
274,274,Niewodnicka/Spokojna(274),,53.112741,23.080521,1,
033,033,Baranowicka/Leśna(033),,53.122513,23.208303,1,
275,275,Sejneńska/Handlowa(275),,53.116638,23.116062,1,
276,276,Hurtowa(276),,53.115345,23.120397,1,
034,034,Sowlańska/Piaskowa(034),,53.120780,23.210373,1,
035,035,Baranowicka/Wczasowa(035),,53.123400,23.220893,1,
277,277,Sejneńska/Cementownia(277),,53.117580,23.113773,1,
036,036,Baranowicka/Wczasowa(036),,53.123478,23.223007,1,
278,278,Bażantarnia/Pętla(278),,53.116848,23.108709,1,
279,279,Sejneńska(279),,53.117407,23.113840,1,
037,037,Sowlańska/Dojnowska(037),,53.118183,23.210007,1,
038,038,Dojnowska/Sowlańska(038),,53.115402,23.212563,1,
039,039,Sowlańska/Dojnowska(039),,53.116737,23.209877,1,
280,280,Hurtowa(280),,53.115500,23.121192,1,
281,281,Pałacowa/Hotel(281),,53.132693,23.169845,1,
282,282,Pałacowa/Hotel(282),,53.132713,23.169540,1,
040,040,Dojnowska/Społem(040),,53.115212,23.213710,1,
041,041,Gen. Hallera/Kościół(041),,53.148665,23.119080,1,
283,283,Miłosza/Branickiego(283),,53.124442,23.181220,1,
042,042,Gen. Hallera/Brzozowa(042),,53.152123,23.125048,1,
284,284,Miłosza/Atrium Biała(284),,53.121630,23.178515,1,
043,043,Gen. Hallera/Parking(043),,53.155333,23.128698,1,
285,285,Miłosza/Drewniana(285),,53.120425,23.175798,1,
286,286,Piastowska/Nowowarszawska(286),,53.126047,23.183545,1,
044,044,Dziesięciny/Pętla(044),,53.153915,23.133402,1,
045,045,Dziesięciny/Pętla(045),,53.153655,23.133888,1,
287,287,Piastowska/Chrobrego(287),,53.129630,23.190390,1,
046,046,Gen. Hallera/Dziesięciny(046),,53.154232,23.133782,1,
288,288,Piastowska/Kościół(288),,53.133218,23.194292,1,
047,047,Gen. Hallera/Palmowa(047),,53.154418,23.127077,1,
289,289,Piasta/Andrukiewicza(289),,53.134670,23.198914,1,
048,048,Gen. Hallera/Gajowa(048),,53.150838,23.122882,1,
049,049,Dojnowska/Plażowa(049),,53.114868,23.215578,1,
1949,1949,Janowicze/Kolonia(1949),,53.012286,23.204183,2,
1948,1948,Janowicze/Pętla(1948),,53.010672,23.173630,2,
1947,1947,Ogrodniczki k. Juchnowca(1947),,53.016994,23.151217,2,
290,290,Piasta/Włościańska(290),,53.132997,23.204960,1,
291,291,Piastowska/Os.Piasta(291),,53.134870,23.195380,1,
050,050,Popiełuszki/Boboli(050),,53.128658,23.084625,1,
292,292,Piastowska/Mieszka I(292),,53.131972,23.192502,1,
051,051,Boboli/Klonowa(051),,53.124555,23.086940,1,
293,293,Piastowska/Chrobrego(293),,53.128878,23.187967,1,
294,294,Piasta/Przejazd(294),,53.133260,23.204457,1,
052,052,Boboli/Letnia(052),,53.125345,23.086365,1,
295,295,Paderewskiego/Św. Jerzego(295),,53.106336,23.119703,1,
053,053,Boboli/Cmentarz(053),,53.132377,23.083938,1,
296,296,Paderewskiego(296),,53.107782,23.116103,1,
054,054,Boboli/Cmentarz(054),,53.131827,23.084128,1,
297,297,Paderewskiego/Pułaskiego(297),,53.106842,23.117428,1,
055,055,Ciołkowskiego/Stadion Miejski(055),,53.105026,23.150703,1,
056,056,Łomżyńska/Młynowa(056),,53.126629,23.137717,1,
057,057,Boh. M. Cassino/Wyszyńskiego(057),,53.133147,23.138382,1,
299,299,Wasilków/Jurowiecka(299),,53.197207,23.198533,2,
058,058,Poleska/Św. Rocha(058),,53.134417,23.139365,1,
1959,1959,Stanisławowo/Sklep(1959),,53.076628,23.205588,2,
1958,1958,Stanisławowo (N)(1958),,53.084116,23.200260,2,
1957,1957,Lewickie-Kolonia(1957),,53.038298,23.173061,2,
1956,1956,Niewodnica Narg. Kolonia(1956),,53.050640,23.188292,2,
1955,1955,Hermanówka(1955),,53.030716,23.193501,2,
060,060,Boh. M. Cassino/Ciechanowska(060),,53.128662,23.136162,1,
061,061,Branickiego/Teatr(061),,53.131552,23.169326,1,
062,062,Branickiego/Świętojańska(062),,53.127713,23.175148,1,
063,063,Branickiego/Miłosza(063),,53.124477,23.183558,1,
064,064,Branickiego/Geodetów(064),,53.122948,23.187910,1,
065,065,Branickiego/Nowowarszawska(065),,53.121335,23.192822,1,
066,066,Branickiego/Baranowicka(066),,53.121868,23.192198,1,
067,067,Branickiego/Geodetów(067),,53.123795,23.186477,1,
068,068,Branickiego/Piastowska(068),,53.125930,23.181407,1,
069,069,Branickiego/Automobilklub(069),,53.128070,23.175038,1,
070,070,Brzechwy/42. Pułku Piechoty(070),,53.143328,23.212817,1,
071,071,Chełmońskiego/Rubinowicza(071),,53.147972,23.210265,1,
072,072,Chełmońskiego/Matejki(072),,53.147890,23.210790,1,
073,073,42. Pułku Piechoty/Zacisze Dolistówki I(073),,53.141401,23.228141,1,
074,074,Ciołkowskiego/Mickiewicza(074),,53.113687,23.176838,1,
075,075,Ciołkowskiego/Stadion Miejski(075),,53.105578,23.152839,1,
076,076,Ciołkowskiego/Instytut Meteorologii(076),,53.109575,23.164937,1,
077,077,Jurowce/Kamienna(077),,53.198374,23.168707,2,
078,078,Ciołkowskiego/Śląska(078),,53.114475,23.179315,1,
079,079,Ciołkowskiego/Kościół(079),,53.117812,23.189623,1,
1739,1739,Czerewki/DPS(1739),,52.918484,23.152228,2,
1979,1979,Rumejki(1979),,53.025510,23.152917,2,
1736,1736,Dorożki/Kolonia(1736),,52.940071,23.168487,2,
080,080,Ciołkowskiego/Nowowarszawska(080),,53.119949,23.195039,1,
1990,1990,Zajączki/Las(1990),,52.929423,23.185489,2,
081,081,Ciołkowskiego/Mickiewicza(081),,53.114029,23.177349,1,
082,082,Elewatorska(082),,53.145344,23.072550,1,
083,083,Ciołkowskiego/Instytut Meteorologii(083),,53.109235,23.163062,1,
084,084,Botaniczna/Artyleryjska(084),,53.136517,23.145130,1,
085,085,Niedźwiedzia/Osiedle Dojlidy(085),,53.114646,23.190414,1,
086,086,Chełmońskiego/Janickiego(086),,53.148285,23.205640,1,
087,087,Chełmońskiego/Kazimierza Wielkiego(087),,53.148458,23.202743,1,
088,088,Chełmońskiego/Szymanowskiego(088),,53.148168,23.206653,1,
1503,1503,Sochonie/Spacerowa(1503),,53.217055,23.177411,2,
089,089,Jurowce/Kamienna(089),,53.198466,23.168849,2,
1502,1502,Sochonie/Spacerowa(1502),,53.217016,23.177363,2,
1501,1501,Wasilków/Rynek (N)(1501),,53.198625,23.207108,2,
1509,1509,Wasilków/Wojtachowska 42(1509),,53.200534,23.199478,2,
1508,1508,Wasilków/Wojtachowska 31(1508),,53.200534,23.199478,2,
1507,1507,Wasilków/Wojtachowska 76(1507),,53.203643,23.195352,2,
1506,1506,Wasilków/Wojtachowska 59(1506),,53.203643,23.195352,2,
1505,1505,Wasilków/Wojtachowska II(1505),,53.206163,23.193473,2,
1747,1747,Czerewki/Kożany(1747),,52.918111,23.165572,2,
1989,1989,Tryczówka/Kościół(1989),,52.949157,23.160638,2,
1504,1504,Wasilków/Wojtachowska I(1504),,53.206087,23.193338,2,
1746,1746,Wojszki(1746),,52.920041,23.210803,2,
1988,1988,Złotniki(1988),,52.975098,23.152219,2,
090,090,Ciołkowskiego/Żwirki i Wigury(090),,53.111508,23.170638,1,
091,091,Dojlidy Fabryczne/Dojnowska(091),,53.117945,23.200617,1,
092,092,Niedźwiedzia/Osiedle Dojlidy (D)(092),,53.114714,23.190216,1,
093,093,Suchowolca/Myśliwska(093),,53.112868,23.202843,1,
094,094,Dojlidy Fabryczne/Dojnowska(094),,53.118295,23.200157,1,
095,095,Dojlidy Fabryczne/Suchowolca(095),,53.114113,23.201852,1,
096,096,Dolistowska/42. Pułku Piechoty(096),,53.142085,23.212690,1,
097,097,Dolistowska/Ogródki Działkowe Pieczurki(097),,53.138344,23.211786,1,
098,098,Suchowolca/Dojlidy Cmentarz I(098),,53.106183,23.215458,1,
099,099,Dolistowska/Osiedle Pieczurki(099),,53.134703,23.211295,1,
1514,1514,Wasilków/Supraślska(1514),,53.204120,23.208852,2,
1513,1513,Wasilków/Polna(1513),,53.205451,23.209109,2,
1512,1512,Wasilków/Przytorowa(1512),,53.197470,23.182980,2,
1511,1511,Wasilków/Przytorowa(1511),,53.197470,23.182980,2,
1510,1510,Wasilków/Rynek(1510),,53.199660,23.207482,2,
1991,1991,Zajączki(1991),,52.919085,23.182248,2,
1519,1519,Nowodworce/Plaża (B)(1519),,53.194970,23.235720,2,
1518,1518,Wasilków/Gajna (W)(1518),,53.198134,23.214260,2,
1517,1517,Wasilków/Gajna (B)(1517),,53.198141,23.214534,2,
1516,1516,Wasilków/Spożywcza(1516),,53.197390,23.193410,2,
1515,1515,Wasilków/Kościelna(1515),,53.199765,23.206091,2,
1525,1525,Osowicze(1525),,53.176320,23.114299,2,
1524,1524,Nowodworce/Wieś(1524),,53.189994,23.239365,2,
1523,1523,Nowodworce/Plaża (W)(1523),,53.195092,23.235637,2,
1522,1522,Wasilków/Żwirowa(1522),,53.206835,23.198820,2,
1529,1529,Sielachowskie nr 53(1529),,53.180640,23.139188,2,
1528,1528,Osowicze nr 1a(1528),,53.180427,23.132756,2,
1527,1527,Osowicze nr 63(1527),,53.181098,23.125250,2,
1526,1526,Osowicze nr 99/1(1526),,53.180015,23.119010,2,
1536,1536,Osowicze nr 42(1536),,53.181188,23.125056,2,
1535,1535,Osowicze nr 2a(1535),,53.180490,23.132588,2,
1534,1534,Dorożki(1534),,52.933840,23.152870,2,
1533,1533,Pańki (J)(1533),,52.925665,23.154217,2,
1532,1532,Sielachowskie nr 64(1532),,53.180764,23.138019,2,
1531,1531,Sielachowskie nr 31(1531),,53.180630,23.144435,2,
1530,1530,Sielachowskie nr 21(1530),,53.180541,23.143587,2,
1538,1538,Osowicze nr 125(1538),,53.176328,23.114227,2,
1537,1537,Osowicze nr 74(1537),,53.179905,23.118850,2,
900,900,Kuriany III(900),,53.089591,23.254846,2,
901,901,Rostołty(901),,52.968901,23.129849,2,
902,902,Ignatki(902),,53.068310,23.100687,2,
903,903,Kolonia Koplany(903),,53.062132,23.094465,2,
904,904,Koplany/Cegielnia(904),,53.059350,23.097080,2,
905,905,Brończany(905),,53.050527,23.110418,2,
906,906,Lewickie-Stacja(906),,53.029872,23.126612,2,
907,907,Niewodnica Nargilewska(907),,53.060065,23.210888,2,
908,908,Juchnowiec Kościelny(908),,53.019047,23.141990,2,
909,909,Lewickie-Stacja(909),,53.029850,23.126687,2,
910,910,Brończany(910),,53.051157,23.109815,2,
911,911,Koplany/Cegielnia(911),,53.059350,23.097063,2,
912,912,Kolonia Koplany(912),,53.062965,23.094918,2,
913,913,Ignatki(913),,53.068685,23.101005,2,
914,914,Lewickie-Stacja/Osada(914),,53.033358,23.121480,2,
919,919,Lewickie-Stacja/Osada(919),,53.033535,23.121322,2,
1110,1110,Klepacze/Długa(1110),,53.117300,23.067632,2,
920,920,Kuriany IV(920),,53.093758,23.253455,2,
921,921,Księżyno/Krokusowa(921),,53.077045,23.103128,2,
922,922,Księżyno/Krokusowa(922),,53.076162,23.103907,2,
923,923,Juchnowiec/Jaśminowa(923),,53.023465,23.135515,2,
924,924,Juchnowiec/Jaśminowa (B)(924),,53.023998,23.135015,2,
925,925,Halicka/Margerytki(925),,53.075562,23.224855,1,
926,926,Halicka/Pętla(926),,53.075627,23.224672,1,
927,927,Karakule/Las(927),,53.163806,23.253072,1,
1109,1109,Klepacze/Spokojna(1109),,53.111011,23.071947,2,
928,928,Karakule/Klasztorna(928),,53.179877,23.263153,1,
929,929,Karakule/Klasztorna(929),,53.178785,23.263113,1,
1121,1121,Łyski/Białostocka(1121),,53.151036,23.036683,2,
1120,1120,Łyski/Rondo(1120),,53.150794,23.039942,2,
1118,1118,Porosły/Sklep(1118),,53.139252,23.055627,2,
1117,1117,Porosły/Sportowa(1117),,53.139298,23.062375,2,
1116,1116,Porosły/Sportowa(1116),,53.139264,23.062456,2,
1115,1115,Porosły/Wierzbowa(1115),,53.139001,23.055904,2,
1114,1114,Krupniki/Lipowa(1114),,53.131042,23.056063,2,
1113,1113,Krupniki/Fiołkowa(1113),,53.128100,23.060109,2,
930,930,Karakule/Las(930),,53.163477,23.252293,1,
1112,1112,Krupniki/Makowa(1112),,53.125425,23.062943,2,
1111,1111,Krupniki/Węgierska(1111),,53.121465,23.064968,2,
1353,1353,Złotniki/Kolonia(1353),,52.965524,23.156829,2,
933,933,Choroszcz/Warszawska(933),,53.156460,23.022147,2,
934,934,Choroszcz/Warszawska(934),,53.156622,23.022747,2,
935,935,Choroszcz/Zastawie(935),,53.139342,22.984257,2,
936,936,Choroszcz/Piaskowa(936),,53.137568,22.976982,2,
937,937,Choroszcz/Cmentarz(937),,53.135018,22.974300,2,
938,938,Choroszcz/Piaskowa (B)(938),,53.137650,22.977105,2,
1119,1119,Porosły/Szumiących Traw(1119),,53.146415,23.053103,2,
939,939,Choroszcz/Dominikańska(939),,53.139760,22.985462,2,
1132,1132,Porosły/Wierzbowa(1132),,53.138688,23.055341,2,
1131,1131,Porosły/Szumiących Traw (B)(1131),,53.145405,23.053460,2,
1130,1130,Łyski/Rondo(1130),,53.150755,23.039985,2,
1129,1129,Łyski/Świetlica(1129),,53.151525,23.033339,2,
1128,1128,Jeroniki (B)(1128),,53.150959,23.026666,2,
1127,1127,Choroszcz/Cmentarz Żydowski(1127),,53.147930,23.005414,2,
1126,1126,Choroszcz/Kościuszki (B)(1126),,53.145867,22.999179,2,
1125,1125,Choroszcz/Kościuszki(1125),,53.145350,22.997590,2,
1124,1124,Choroszcz/Witosa(1124),,53.147608,23.003394,2,
940,940,Ciasne/Osada(940),,53.177317,23.281282,1,
1123,1123,Jeroniki(1123),,53.150659,23.026733,2,
941,941,Ciasne/Osada(941),,53.177685,23.280848,1,
1122,1122,Łyski/Świetlica(1122),,53.151530,23.032311,2,
700,700,Mickiewicza/Ogródki Działkowe(700),,53.100052,23.188650,1,
942,942,Dojlidy Górne/Kameliowa(942),,53.078642,23.211620,1,
701,701,Dojlidy Górne/Pętla(701),,53.096004,23.210254,1,
943,943,Dojlidy Górne/Kameliowa(943),,53.079133,23.211317,1,
944,944,Choroszcz/Baczyńskiego(944),,53.146843,22.995605,2,
702,702,Dojlidy Górne/Zalesie(702),,53.101543,23.210747,1,
945,945,Szosa Baranowicka/Gen. Sulika(945),,53.125753,23.231630,1,
703,703,Dojlidy Górne/Zalesie(703),,53.101283,23.210725,1,
704,704,Mickiewicza/Sąd Rejonowy(704),,53.104783,23.185327,1,
946,946,Wasilków/Kościuszki(946),,53.198774,23.204496,2,
705,705,Dojlidy Górne/Brzoskwiniowa(705),,53.088015,23.210493,1,
706,706,Dojlidy Górne/Grabowa (C)(706),,53.091905,23.211143,1,
707,707,Mickiewicza/Grabowa(707),,53.094165,23.193120,1,
708,708,Brzoskwiniowa/Daliowa (D)(708),,53.086685,23.208020,1,
709,709,Mickiewicza/Grabowa(709),,53.093454,23.193297,1,
1143,1143,Krupniki/Poziomkowa(1143),,53.130291,23.057170,2,
1142,1142,Choroszcz/Kościuszki 6(1142),,53.143890,22.993914,2,
1141,1141,Choroszcz/Kościuszki 3(1141),,53.143777,22.993608,2,
1140,1140,Łyski/Białostocka(1140),,53.151010,23.036759,2,
1139,1139,Klepacze/Spokojna(1139),,53.110326,23.072402,2,
1138,1138,Klepacze/Długa(1138),,53.116508,23.068193,2,
1137,1137,Choroszcz/Niepodległości(1137),,53.156895,22.993374,2,
1136,1136,Choroszcz/Niepodległości(1136),,53.157535,22.994786,2,
950,950,Katrynka(950),,53.234343,23.150058,2,
1135,1135,Krupniki/Węgierska(1135),,53.121487,23.064797,2,
951,951,Wólka-Przedmieście(951),,53.239542,23.168910,2,
1134,1134,Krupniki/Makowa(1134),,53.125092,23.063062,2,
952,952,Wólka Poduchowna(952),,53.235513,23.171967,2,
710,710,Brzoskwiniowa/Daliowa(710),,53.086752,23.207532,1,
1133,1133,Krupniki/Fiołkowa(1133),,53.127802,23.060318,2,
711,711,Zaścianki/Cerkiew(711),,53.125530,23.242050,1,
953,953,Woroszyły 1(953),,53.227762,23.170677,2,
712,712,Zaścianki/Usługowa(712),,53.125253,23.246545,1,
954,954,Woroszyły 2(954),,53.222347,23.166850,2,
713,713,Zaścianki/Stacja Paliw(713),,53.125213,23.254418,1,
714,714,Grabówka/Rondo(714),,53.125328,23.257952,1,
715,715,Zaścianki/Afrykańska(715),,53.125612,23.243815,1,
716,716,Zaścianki/Cerkiew(716),,53.125942,23.238192,1,
958,958,Stanisławowo(958),,53.084830,23.199875,2,
717,717,Zaścianki/Stacja Paliw(717),,53.125320,23.252517,1,
959,959,Stanisławowo/Sklep(959),,53.077358,23.205263,2,
718,718,Sobolewo/Rondo(718),,53.125243,23.260087,1,
719,719,Fasty/Giełda (F)(719),,53.161035,23.069817,1,
960,960,Lodowa/Św. Krzysztofa(960),,53.169166,23.115555,1,
961,961,Zawady/Św. Krzysztofa(961),,53.169011,23.110192,1,
720,720,Fasty/Giełda (B)(720),,53.161048,23.069802,1,
962,962,Zawady/Końcowa(962),,53.166111,23.110000,1,
721,721,Fasty/Mleczarnia(721),,53.171235,23.046483,2,
963,963,Zawady/Końcowa (B)(963),,53.166785,23.110057,1,
722,722,Fasty/PKS(722),,53.168023,23.060693,2,
964,964,Św. Krzysztofa/Kościół(964),,53.169508,23.111511,1,
723,723,Fasty/Cerkiew(723),,53.168538,23.058115,2,
965,965,Lodowa/Św. Krzysztofa(965),,53.168556,23.115878,1,
966,966,Olmonty/Jaworowa(966),,53.084090,23.161684,2,
724,724,Fasty/Pętla(724),,53.171267,23.046778,2,
967,967,Olmonty/Miła(967),,53.083657,23.165922,2,
725,725,Fasty/Warsztat Mechaniczny(725),,53.165202,23.068298,2,
968,968,Olmonty/Leśna(968),,53.083898,23.172406,2,
726,726,Sochonie/Osiedle Łan(726),,53.206707,23.171732,2,
969,969,Olmonty/Chabrowa(969),,53.084423,23.182362,2,
727,727,Sochonie/Pętla(727),,53.213215,23.171985,2,
728,728,Sochonie/Osiedle Łan(728),,53.206197,23.171835,2,
729,729,Sochonie/Zakład Stolarski (B)(729),,53.198373,23.174453,2,
970,970,Olmonty/Wrzosowa(970),,53.084689,23.194021,2,
971,971,Olmonty/Wrzosowa(971),,53.084784,23.193621,2,
972,972,Olmonty/Chabrowa(972),,53.084528,23.182569,2,
730,730,Ciołkowskiego/Gen. Sulika(730),,53.129460,23.224605,1,
973,973,Olmonty/Leśna(973),,53.083952,23.171517,2,
731,731,Jurowce/Pętla(731),,53.198190,23.157007,2,
974,974,Olmonty/Miła(974),,53.083758,23.166738,2,
732,732,Jurowce/Most (B)(732),,53.189863,23.151622,2,
733,733,Jurowce/Wiadukt(733),,53.195515,23.155465,2,
734,734,Sielachowskie (B)(734),,53.182743,23.147732,2,
735,735,Sielachowskie/Muzeum Wsi(735),,53.178848,23.147730,2,
737,737,Jurowce/Most (S)(737),,53.190025,23.152132,2,
738,738,Jurowce/Wieś (S)(738),,53.198318,23.159167,2,
740,740,Wasilków/Zakład Stolarski (S)(740),,53.198762,23.174492,2,
741,741,Kleosin/Klasztor(741),,53.095965,23.123496,1,
742,742,Kleosin/Baczyńskiego(742),,53.091623,23.115985,1,
500,500,1000-lecia PP/Gen. Maczka(500),,53.157558,23.151460,1,
743,743,Kleosin/Pętla(743),,53.092420,23.117895,1,
501,501,1000-lecia PP/Sokólska(501),,53.150350,23.154852,1,
744,744,Zambrowska/Politechnika(744),,53.096860,23.125818,1,
502,502,1000-lecia PP/pl. Ks. Sopoćki(502),,53.145273,23.157061,1,
745,745,Kleosin/Pętla(745),,53.091941,23.117362,1,
503,503,1000-lecia PP/Wodociągi (B)(503),,53.166408,23.148295,1,
504,504,1000-lecia PP/Zajazd(504),,53.174367,23.146570,1,
505,505,1000-lecia PP/Zajazd(505),,53.175713,23.147290,1,
748,748,Księżyno/Niedźwiedzia(748),,53.074698,23.088503,2,
506,506,1000-lecia PP/Wodociągi (S)(506),,53.167412,23.148317,1,
749,749,Księżyno/Borsucza(749),,53.075652,23.090420,2,
508,508,Wyszyńskiego(508),,53.129937,23.141265,1,
509,509,Wyszyńskiego/Sosnowskiego(509),,53.128748,23.143172,1,
990,990,al. Piłsudskiego/Kościelna(990),,53.133464,23.167060,1,
750,750,Niewodnica Korycka(750),,53.070731,23.081919,2,
751,751,Księżyno/Vega(751),,53.079003,23.096117,2,
752,752,Księżyno/Kościół(752),,53.081728,23.100790,2,
510,510,Wasilków/Cisowa(510),,53.182081,23.187269,1,
511,511,Warszawska/Szpital(511),,53.133700,23.169413,1,
995,995,pl. Jana Pawła II/Katedra(995),,53.132014,23.164228,1,
753,753,Horodniany(753),,53.087058,23.110193,2,
996,996,Branickiego/Urząd Miejski(996),,53.131228,23.170080,1,
512,512,Warszawska/Kościół Św. Wojciecha(512),,53.130330,23.174430,1,
754,754,Horodniany(754),,53.086027,23.108137,2,
513,513,Warszawska/Piastowska(513),,53.127559,23.181134,1,
755,755,Księżyno/Niewodnicka(755),,53.082458,23.101905,2,
997,997,Sokólska/Szkoła(997),,53.149540,23.152097,1,
514,514,Warszawska/Piastowska(514),,53.127887,23.180537,1,
756,756,Księżyno/Bociania(756),,53.079125,23.095813,2,
757,757,Sobolewo/Niedźwiedzia(757),,53.125383,23.282365,1,
515,515,Warszawska/Uniwersytet(515),,53.130700,23.173920,1,
758,758,Grabówka/Pomnik(758),,53.125102,23.286424,1,
516,516,Wyszyńskiego/Urząd Marszałkowski(516),,53.131628,23.138682,1,
759,759,Grabówka/Mniszkowa(759),,53.125527,23.285394,1,
517,517,Wyszyńskiego/Młynowa(517),,53.127622,23.144135,1,
518,518,Wyszyńskiego/Kaczorowskiego(518),,53.124398,23.147612,1,
519,519,Wyszyńskiego/Bema(519),,53.125330,23.145656,1,
760,760,Grabówka/Macierzankowa(760),,53.125430,23.278570,1,
761,761,Sobolewo/Pętla(761),,53.106780,23.269880,1,
762,762,Sobolewo/Szkoła(762),,53.113002,23.268356,1,
520,520,Wyszyńskiego/Stołeczna(520),,53.131075,23.139889,1,
521,521,Wasilkowska/Traugutta(521),,53.144272,23.179307,1,
763,763,Sobolewo/Szkoła(763),,53.112280,23.268790,1,
522,522,Wysockiego/Raginisa(522),,53.150237,23.185927,1,
764,764,Sobolewo/Sokola(764),,53.121510,23.261838,1,
523,523,Wasilkowska/Błękitna(523),,53.149027,23.185565,1,
765,765,Sobolewo/Przejazd(765),,53.115911,23.266083,1,
524,524,Wasilkowska/Gen. Andersa(524),,53.145478,23.180942,1,
766,766,Sobolewo/Przejazd(766),,53.116606,23.265666,1,
767,767,Grabówka/Baranowicka(767),,53.126410,23.258365,1,
525,525,Wiejska/Pogodna(525),,53.116956,23.144245,1,
526,526,Wiejska/Kopernika(526),,53.120388,23.145004,1,
768,768,Sobolewo/Zajęcza(768),,53.120760,23.262364,1,
769,769,Grabówka/Jeżynowa(769),,53.125363,23.266265,1,
527,527,Wiejska/Zachodnia(527),,53.115002,23.145503,1,
528,528,Wiejska/UWB(528),,53.113260,23.147204,1,
529,529,Wiejska/Politechnika(529),,53.116267,23.145071,1,
770,770,Sobolewo/Bociania(770),,53.125325,23.268535,1,
771,771,Wasilków/Polna(771),,53.206285,23.206907,2,
530,530,Kaczorowskiego/Zwierzyniecka(530),,53.121431,23.147135,1,
772,772,Wasilków/Kupiecka(772),,53.198905,23.204013,2,
531,531,Wiejska/Kręta(531),,53.113299,23.146686,1,
773,773,Wasilków/Plaża(773),,53.194547,23.194880,2,
774,774,Wasilków/Stacja Pomp(774),,53.193403,23.193885,2,
532,532,Wiewiórcza/Szpital Zakaźny(532),,53.110128,23.190373,1,
533,533,Sybiraków/Kościół(533),,53.132168,23.194588,1,
775,775,Wasilków/Osiedle(775),,53.196682,23.197773,2,
534,534,Sybiraków/Andrukiewicza(534),,53.131268,23.199241,1,
776,776,Wasilków/Kościelna(776),,53.199254,23.206054,2,
535,535,Wiejska/Pogodna(535),,53.118234,23.144444,1,
777,777,Wasilków/Kościelna Polna(777),,53.204718,23.206788,2,
536,536,Wierzbowa/Antoniukowska(536),,53.143457,23.131377,1,
778,778,Wasilków/Cmentarz(778),,53.212310,23.212638,2,
537,537,Wierzbowa/Park(537),,53.140357,23.122777,1,
779,779,Wasilków/Święta Woda(779),,53.220417,23.219982,2,
538,538,Wierzbowa/Technikum Mechaniczne(538),,53.140478,23.124352,1,
539,539,Świętokrzyska/Sopoćki(539),,53.146807,23.135891,1,
780,780,Grabówka/Leszczynowa(780),,53.129227,23.257831,1,
781,781,Grabówka/Malinowa(781),,53.134667,23.257925,1,
540,540,Myśliwska/Pętla(540),,53.109165,23.199975,1,
782,782,Ciołkowskiego/Polna(782),,53.131065,23.228950,1,
541,541,Wiewiórcza/Szpital Zakaźny(541),,53.110490,23.189542,1,
783,783,Ciołkowskiego/Plażowa(783),,53.127220,23.216826,1,
542,542,Wiewiórcza/Sokola(542),,53.111053,23.183752,1,
300,300,Częstochowska/Piłsudskiego(300),,53.135470,23.151930,1,
784,784,Ciołkowskiego/Zaściańska(784),,53.123864,23.207343,1,
301,301,al. Piłsudskiego/pl. Niepodległości(301),,53.135653,23.146942,1,
543,543,Wiewiórcza/Liceum(543),,53.111018,23.182971,1,
785,785,Ciołkowskiego/Gen. Sulika(785),,53.128769,23.221936,1,
302,302,al. Piłsudskiego/Częstochowska(302),,53.136028,23.153563,1,
786,786,Ciołkowskiego/Stacja Paliw(786),,53.120813,23.198608,1,
544,544,Wiewiórcza/WORD(544),,53.110225,23.191586,1,
303,303,al. Piłsudskiego/Sienkiewicza(303),,53.134332,23.164218,1,
787,787,Ciołkowskiego/Obrębowa(787),,53.124756,23.210733,1,
545,545,Myśliwska/Sępia(545),,53.108620,23.199759,1,
304,304,al. Piłsudskiego/Pałacowa(304),,53.133056,23.168025,1,
546,546,Witosa/Pawilon(546),,53.132025,23.101750,1,
788,788,Ciołkowskiego/Plażowa(788),,53.126612,23.216519,1,
547,547,Witosa/Os. Słoneczny Stok(547),,53.132382,23.107028,1,
305,305,al. Piłsudskiego/Rzeka Biała(305),,53.135495,23.162340,1,
789,789,Ciołkowskiego/Polna(789),,53.131260,23.229580,1,
548,548,Marczukowska/Stroma(548),,53.130607,23.112923,1,
306,306,al. Piłsudskiego/Waryńskiego(306),,53.136224,23.153601,1,
307,307,al. Piłsudskiego/Botaniczna(307),,53.136037,23.147562,1,
549,549,Marczukowska/Piekarnia(549),,53.131525,23.111438,1,
308,308,Malmeda/Zamenhofa(308),,53.133652,23.156814,1,
309,309,Malmeda/Lipowa(309),,53.133190,23.155845,1,
790,790,Grabówka/Kościół(790),,53.135820,23.257490,1,
791,791,Grabówka/Jodłowa(791),,53.132600,23.257896,1,
550,550,Witosa/Skrajna(550),,53.132272,23.105210,1,
792,792,Grabówka/Klubowa(792),,53.134413,23.238331,1,
551,551,Witosa/Przychodnia(551),,53.132185,23.101232,1,
793,793,Grabówka/Dębowa(793),,53.132691,23.233508,1,
552,552,Włościańska/Brzostowskiego(552),,53.134013,23.209224,1,
794,794,Grabówka/Myśliwska(794),,53.132659,23.233579,1,
310,310,Plażowa/Zuchów(310),,53.121890,23.217822,1,
553,553,Włościańska/Pieczurki(553),,53.134133,23.207570,1,
795,795,Grabówka/Klubowa(795),,53.134601,23.239115,1,
311,311,Plażowa/Pozioma(311),,53.119218,23.217623,1,
796,796,Grabówka/Baranowicka(796),,53.126427,23.258469,1,
554,554,Piasta/Piastowska(554),,53.135019,23.196795,1,
312,312,Plażowa/Dojnowska(312),,53.114112,23.216648,1,
797,797,Grabówka/Orzechowa(797),,53.130749,23.257767,1,
555,555,Sybiraków/Pętla(555),,53.130882,23.202497,1,
313,313,Plażowa/Suchowolca(313),,53.109702,23.212382,1,
798,798,Grabówka/Kościół (S)(798),,53.136614,23.257346,1,
314,314,Bohaterów Getta/Bank(314),,53.136748,23.152175,1,
556,556,Bitwy Białostockiej/Kombatantów(556),,53.148087,23.163697,1,
799,799,Grabówka/Orzechowa(799),,53.131490,23.257851,1,
315,315,Bohaterów Getta/Poleska(315),,53.139401,23.150682,1,
557,557,Bitwy Białostockiej/1000-lecia PP(557),,53.145705,23.158965,1,
316,316,Plażowa/Cerkiew Proroka Eliasza(316),,53.110042,23.213081,1,
558,558,Bitwy Białostockiej/Kombatantów(558),,53.149773,23.165448,1,
559,559,Wiewiórcza/Borsucza(559),,53.109687,23.198558,1,
317,317,Plażowa/Dojnowska(317),,53.115355,23.217013,1,
318,318,Plażowa/Pozioma(318),,53.118438,23.217662,1,
319,319,Plażowa/Pętla(319),,53.110095,23.212628,1,
560,560,Wiewiórcza/Szpacza(560),,53.109952,23.194852,1,
561,561,Wrocławska/Rybnika(561),,53.123309,23.094802,1,
320,320,Popiełuszki/al. Niepodległości(320),,53.127934,23.089147,1,
562,562,Wrocławska/Miodowa(562),,53.122611,23.092059,1,
321,321,Pogodna/Wiejska(321),,53.117563,23.143395,1,
563,563,Wrocławska/Storczykowa(563),,53.122361,23.091677,1,
322,322,Pogodna/Bema(322),,53.115877,23.137393,1,
564,564,Wrocławska/Zielonogórska(564),,53.124113,23.096653,1,
323,323,Pogodna/Żeromskiego(323),,53.113853,23.130802,1,
565,565,Wysockiego/Krzywoustego(565),,53.167433,23.187145,1,
324,324,Pogodna/Garaże(324),,53.116456,23.139895,1,
566,566,Wasilków/Ogródki Działkowe(566),,53.185277,23.189058,1,
325,325,Żeromskiego/Transportowa(325),,53.113191,23.129989,1,
567,567,Wysockiego/Pętla(567),,53.176608,23.187353,1,
568,568,Wysockiego/„Silikaty”(568),,53.172195,23.186598,1,
326,326,Poleska/Pogotowie(326),,53.138160,23.144040,1,
569,569,Wysockiego/Outlet Białystok(569),,53.162712,23.186063,1,
327,327,Poleska/Czysta(327),,53.139998,23.151097,1,
328,328,Poleska/Jurowiecka(328),,53.141222,23.157287,1,
329,329,Poleska/Szkoła(329),,53.142595,23.161522,1,
570,570,Wysockiego/Cmentarz Miejski(570),,53.159162,23.185998,1,
571,571,Wysockiego/Pietrasze(571),,53.154100,23.185783,1,
572,572,Wysockiego/Zgoda(572),,53.155342,23.186066,1,
330,330,Jagienki/Ciepła(330),,53.141282,23.168740,1,
573,573,Wysockiego/Cmentarz Miejski(573),,53.160562,23.186273,1,
331,331,Poleska/Jagienki(331),,53.143503,23.165273,1,
574,574,Wysockiego/Outlet Białystok(574),,53.163813,23.186393,1,
332,332,Poleska/Wiadukt(332),,53.142022,23.159308,1,
575,575,Wysockiego/„Silikaty”(575),,53.172772,23.186745,1,
333,333,Poleska/Sitarska(333),,53.139837,23.149760,1,
576,576,Wasilków/Mickiewicza(576),,53.201516,23.208157,2,
334,334,Poleska/Pogotowie(334),,53.138208,23.143815,1,
577,577,Wasilków/Ogródki Działkowe(577),,53.186351,23.189746,1,
335,335,Jagienki/Wąska(335),,53.141617,23.168431,1,
578,578,Wysockiego/Krzywoustego(578),,53.168267,23.187338,1,
336,336,KEN/Kołłątaja(336),,53.151138,23.088423,1,
337,337,KEN/Pietkuna(337),,53.150498,23.084990,1,
579,579,Hetmańska/Piekarnia(579),,53.118727,23.105425,1,
338,338,N. Sił Zbrojnych/KEN(338),,53.149931,23.080392,1,
339,339,Pileckiego/Pietkiewicza(339),,53.151448,23.082572,1,
580,580,Hetmańska/PKP Energetyka(580),,53.120798,23.110148,1,
581,581,Zielonogórska/Bank(581),,53.123068,23.096605,1,
340,340,Kołłątaja/Pileckiego(340),,53.153892,23.087927,1,
582,582,Zielonogórska/Konwaliowa(582),,53.120315,23.100820,1,
341,341,Popiełuszki/Upalna(341),,53.125888,23.105895,1,
583,583,Zielone Wzgórza Pętla(583),,53.117930,23.103635,1,
342,342,Popiełuszki/Os.Słoneczny Stok(342),,53.126542,23.101432,1,
100,100,Dolistowska/Dolistówka(100),,53.137773,23.211835,1,
584,584,Zielonogórska/Zielone Wzgórza(584),,53.118085,23.103915,1,
343,343,Popiełuszki/al. Niepodległości(343),,53.128479,23.086889,1,
101,101,Filipowicza/Wiadukt(101),,53.099380,23.134460,1,
585,585,Zielonogórska/Konwaliowa(585),,53.121105,23.099838,1,
344,344,Popiełuszki/Boboli(344),,53.128308,23.086084,1,
102,102,Dubois/Pawilon(102),,53.107510,23.124715,1,
586,586,Zwierzyniecka/Wesoła(586),,53.119792,23.154582,1,
345,345,Popiełuszki/Kościół Św. Jadwigi(345),,53.126347,23.100272,1,
103,103,Piastowska/Pętla (W)(103),,53.126129,23.181991,1,
587,587,Zwierzyniecka/Kaczorowskiego(587),,53.120142,23.150863,1,
346,346,Popiełuszki/Słonecznikowa(346),,53.125365,23.107592,1,
588,588,Zwierzyniecka/Domy Studenta(588),,53.119782,23.152173,1,
104,104,Piastowska/Pętla (Z)(104),,53.126212,23.181894,1,
347,347,Popiełuszki/Ubocze(347),,53.127147,23.094813,1,
105,105,Włościańska/Poniatowskiego(105),,53.134197,23.214498,1,
589,589,Zwierzyniecka/Świerkowa(589),,53.119415,23.155885,1,
348,348,Popiełuszki/Batalionów Chłopskich(348),,53.127801,23.092237,1,
106,106,Włościańska/Ściegiennego(106),,53.134432,23.219278,1,
107,107,Pieczurki/Ściegiennego(107),,53.135596,23.218966,1,
349,349,Radzymińska/Szkoła(349),,53.144155,23.149852,1,
108,108,Ciołkowskiego/Filipowicza(108),,53.099918,23.135656,1,
109,109,Włościańska/Sklep(109),,53.134077,23.211425,1,
590,590,Zwierzyniecka/Wiejska(590),,53.120387,23.147253,1,
591,591,al. Jana Pawła II/Hotelowa(591),,53.144733,23.080071,1,
592,592,al. Jana Pawła II/Biawar(592),,53.140735,23.101550,1,
350,350,Radzymińska/Sitarska(350),,53.142702,23.148658,1,
593,593,al. Jana Pawła II/Rzeka Biała(593),,53.139395,23.108677,1,
351,351,Produkcyjna/Neptuna(351),,53.156088,23.102047,1,
594,594,Zwycięstwa/Hetmańska(594),,53.137157,23.122328,1,
352,352,Produkcyjna/Saturna(352),,53.157812,23.098645,1,
110,110,Sitarska/Kozłowa(110),,53.141154,23.148692,1,
111,111,Elewatorska/FADOM(111),,53.143899,23.074121,1,
595,595,Zwycięstwa/WSE(595),,53.135755,23.129949,1,
353,353,Sokólska/1000-lecia PP(353),,53.150681,23.154189,1,
112,112,Elewatorska/Polmos(112),,53.139287,23.074698,1,
596,596,Kolejowa/Dworzec PKP(596),,53.135764,23.136740,1,
354,354,Produkcyjna/PEUIM(354),,53.161430,23.092210,1,
113,113,Elewatorska/PZZ(113),,53.135687,23.074603,1,
597,597,Zwycięstwa/Prowiantowa(597),,53.136223,23.127951,1,
355,355,Produkcyjna/Oczyszczalnia(355),,53.165290,23.084050,1,
598,598,al. Jana Pawła II/Wierzbowa(598),,53.137831,23.120215,1,
114,114,Elewatorska/Stadion(114),,53.132237,23.076030,1,
356,356,Produkcyjna/Pętla(356),,53.166150,23.080900,2,
599,599,al. Jana Pawła II/Kościół(599),,53.140168,23.106697,1,
115,115,Elewatorska/Stadion(115),,53.130857,23.076723,1,
357,357,Produkcyjna/Aksamitna(357),,53.165606,23.082168,1,
116,116,Elewatorska/PZZ(116),,53.134893,23.075127,1,
358,358,Produkcyjna/Oczyszczalnia(358),,53.164742,23.085515,1,
117,117,Elewatorska/Polmos(117),,53.140037,23.074922,1,
359,359,Produkcyjna/Gen. Kleeberga(359),,53.157923,23.098288,1,
118,118,Elewatorska/FADOM(118),,53.144444,23.073746,1,
119,119,Nowodworce/Brzozowa(119),,53.186119,23.240906,1,
360,360,Produkcyjna/Bacieczki(360),,53.155117,23.103472,1,
361,361,Kombatantów/1000-lecia PP(361),,53.150809,23.155315,1,
362,362,Produkcyjna/Gen. Maczka(362),,53.160333,23.093727,1,
120,120,Nowodworce/Brzozowa(120),,53.185255,23.241145,1,
121,121,al. Solidarności/Choroszczańska(121),,53.138847,23.133709,1,
363,363,Produkcyjna/Auchan(363),,53.159822,23.097572,1,
122,122,al. Solidarności/Broniewskiego(122),,53.139130,23.133603,1,
364,364,Produkcyjna/Kaszmirowa(364),,53.166715,23.076945,2,
123,123,al. Solidarności/Tuwima(123),,53.138247,23.125973,1,
365,365,Produkcyjna/Kaszmirowa(365),,53.166528,23.077528,2,
366,366,Przędzalniana/Pętla(366),,53.157661,23.080516,1,
124,124,Świętokrzyska/Antoniukowska(124),,53.144459,23.133366,1,
367,367,Przędzalniana/Fasty Osiedle(367),,53.156751,23.084991,1,
125,125,Świętokrzyska/Ogród Działkowy I(125),,53.147738,23.137258,1,
368,368,Przędzalniana/Fasty Osiedle(368),,53.156989,23.084262,1,
126,126,Gajowa/Zagórna(126),,53.154083,23.120642,1,
369,369,Przędzalniana/Pętla(369),,53.157837,23.080332,1,
127,127,Sopoćki/Świętokrzyska(127),,53.146724,23.137614,1,
128,128,Gajowa/Jarzębinowa(128),,53.155270,23.115487,1,
129,129,Gajowa/Zagórna(129),,53.153162,23.121973,1,
370,370,Przędzalniana/Szosa Ełcka(370),,53.159018,23.074987,1,
371,371,Przędzalniana/Szosa Ełcka(371),,53.158563,23.076898,1,
372,372,Piasta/Andrukiewicza(372),,53.134802,23.198359,1,
130,130,Sopoćki/Hajnowska(130),,53.142209,23.146530,1,
131,131,Hetmańska/Marczukowska(131),,53.129807,23.118530,1,
373,373,Myśliwska/Niedźwiedzia(373),,53.111715,23.201017,1,
132,132,Hetmańska/Promienna(132),,53.134260,23.120227,1,
374,374,Kuronia/Myśliwska(374),,53.105623,23.196272,1,
133,133,Hetmańska/Gruntowa(133),,53.136340,23.120749,1,
375,375,Pułaskiego/Kawaleryjska(375),,53.109597,23.145672,1,
134,134,Hetmańska/Promienna(134),,53.132045,23.119057,1,
376,376,Pułaskiego/Przedszkole(376),,53.109483,23.125447,1,
135,135,Hetmańska/Marczukowska(135),,53.128640,23.117793,1,
377,377,Pułaskiego/Wspólna(377),,53.109526,23.134699,1,
136,136,Popiełuszki/Hetmańska(136),,53.124832,23.114172,1,
378,378,Pułaskiego/Szkoła(378),,53.109537,23.138750,1,
137,137,Gen. Fieldorfa „Nila”(137),,53.124103,23.116315,1,
379,379,Pułaskiego/Szkoła(379),,53.109652,23.137199,1,
138,138,Hetmańska/Gen. Fieldorfa „Nila”(138),,53.124995,23.116153,1,
139,139,Hetmańska/Popiełuszki(139),,53.123388,23.114255,1,
380,380,Pułaskiego/Wspólna(380),,53.109667,23.133602,1,
381,381,Pułaskiego/Zachodnia(381),,53.109627,23.126293,1,
140,140,Hetmańska/Os. Zielone Wzgórza(140),,53.120262,23.108777,1,
382,382,Sławińskiego/Kawaleryjska(382),,53.103815,23.135392,1,
141,141,Jurowiecka/Sklep Łowiecki(141),,53.140498,23.158928,1,
383,383,Sławińskiego/Wspólna(383),,53.106714,23.131481,1,
384,384,Produkcyjna/Nadrzeczna(384),,53.153001,23.107871,1,
142,142,Jurowiecka/Sienkiewicza(142),,53.136460,23.163686,1,
143,143,Jurowiecka/Sienkiewicza(143),,53.136430,23.164115,1,
385,385,Radzymińska/Sanktuarium M.B.(385),,53.145580,23.155527,1,
144,144,Jurowiecka/Ciepła(144),,53.138398,23.161150,1,
386,386,Radzymińska/Białostoczek(386),,53.145555,23.153010,1,
387,387,Sokólska/Zagumienna (387),,53.147618,23.149250,1,
145,145,N. Sił Zbrojnych/Ogródki Działkowe(145),,53.152255,23.078233,1,
146,146,Wiadukt/PKP Stadion(146),,53.099485,23.132213,1,
388,388,Zagumienna(388),,53.146172,23.150260,1,
147,147,Kawaleryjska/Zapiecek(147),,53.103645,23.139203,1,
389,389,Sławińskiego/Św. Jerzego(389),,53.106040,23.131570,1,
148,148,Kawaleryjska/Bazar(C)(148),,53.106173,23.143197,1,
149,149,Kawaleryjska/Uniwersytet Muzyczny(149),,53.110395,23.146907,1,
390,390,Sławińskiego/Jednostka Wojskowa(390),,53.103132,23.136055,1,
391,391,Św. Jerzego/Dubois (391),,53.107325,23.126110,1,
150,150,Kawaleryjska/Pułaskiego(150),,53.109210,23.146163,1,
392,392,Św. Jerzego/Paderewskiego(392),,53.106585,23.122518,1,
151,151,Kawaleryjska/Bazar(151),,53.105968,23.142842,1,
393,393,Św. Jerzego/Dubois(393),,53.106955,23.123890,1,
152,152,Kawaleryjska/Zapiecek(152),,53.102858,23.138357,1,
394,394,Św. Jerzego/Żeromskiego(394),,53.107953,23.128808,1,
153,153,Wiadukt/Kościół(153),,53.099897,23.133977,1,
395,395,Niemeńska/Pętla(395),,53.168650,23.212483,1,
396,396,Raginisa/Cmentarz Farny(396),,53.152977,23.191598,1,
154,154,Filipowicza/Pętla(154),,53.095430,23.134060,1,
397,397,Raginisa/Trawiasta(397),,53.156432,23.195300,1,
155,155,Herberta/Pętla(155),,53.148371,23.088627,1,
398,398,Raginisa/Kazimierza Wielkiego(398),,53.160908,23.199540,1,
156,156,Żurawia/Borsucza(156),,53.107637,23.192353,1,
399,399,Raginisa/Baśniowa(399),,53.163558,23.201889,1,
157,157,Kuronia/Żurawia(157),,53.106393,23.191621,1,
159,159,Kolejowa/Dworzec PKP(159),,53.135013,23.135827,1,
160,160,Świętokrzyska/Ogród Działkowy II(160),,53.151356,23.138140,1,
161,161,Konstytucji 3 Maja/Rzemieślnicza(161),,53.143207,23.110589,1,
162,162,Konstytucji 3 Maja/Studzienna(162),,53.145467,23.113385,1,
163,163,Konstytucji 3 Maja/Cmentarz Św. Rocha(163),,53.147605,23.116178,1,
164,164,Konstytucji 3 Maja/Wysoki Stoczek(164),,53.144595,23.111748,1,
165,165,Konstytucji 3 Maja/Swobodna(165),,53.142227,23.109205,1,
166,166,KEN/N. Sił Zbrojnych(166),,53.149588,23.081793,1,
167,167,Pileckiego/Pietkuna(167),,53.152368,23.086463,1,
168,168,Kołłątaja/Pietkiewicza(168),,53.153853,23.088193,1,
169,169,KEN/Pietkiewicza(169),,53.150112,23.083765,1,
170,170,Konstytucji 3 Maja/al. Jana Pawła II(170),,53.140402,23.108397,1,
171,171,Kopernika/Kanonierska(171),,53.125015,23.128347,1,
172,172,Kopernika/Depowa(172),,53.124742,23.138667,1,
173,173,Kopernika/Osiedle Bema(173),,53.122458,23.143022,1,
174,174,Kopernika/Bema(174),,53.123447,23.141720,1,
175,175,Kopernika/Stacja Paliw(175),,53.125667,23.134820,1,
176,176,Kopernika/Lokomotywownia(176),,53.125393,23.129035,1,
177,177,Kopernika/Składowa(177),,53.123357,23.122690,1,
178,178,Kopernika/Tunel(178),,53.124120,23.124678,1,
179,179,Kolbego/Kościół(179),,53.160655,23.190627,1,
1839,1839,Wólka/Skrzyżowanie(1839),,53.001254,23.151173,2,
180,180,Kolbego/Gen. Grota-Roweckiego(180),,53.160522,23.193917,1,
181,181,Legionowa/Szkoła(181),,53.128918,23.155380,1,
182,182,pl. Jana Pawła II/Pałac Branickich(182),,53.131875,23.165966,1,
183,183,Legionowa/Piękna(183),,53.129075,23.155160,1,
184,184,Klepacka/Pętla(184),,53.112631,23.085714,1,
185,185,Klepacka(185),,53.112794,23.085756,1,
186,186,Kolbego/Staffa(186),,53.160752,23.189548,1,
187,187,Klepacka/Wenecka(187),,53.114216,23.090408,1,
188,188,Sowlany/Św. Marka(188),,53.156645,23.243230,1,
189,189,Sowlany/Św. Marka(189),,53.156322,23.243157,1,
190,190,Klepacka/Barszczańska(190),,53.113620,23.089099,1,
191,191,Gen. Sosabowskiego/Kapralska(191),,53.144232,23.187718,1,
192,192,42. Pułku Piechoty/Robotnicza(192),,53.144270,23.196303,1,
193,193,42. Pułku Piechoty/Fredry(193),,53.143795,23.202953,1,
194,194,42. Pułku Piechoty/Dolistowska(194),,53.142543,23.213992,1,
195,195,42. Pułku Piechoty/Zacisze Dolistówki(195),,53.141952,23.221117,1,
196,196,42. Pułku Piechoty/Nowa Wygoda(196),,53.141637,23.225133,1,
197,197,Warzywna/Pętla(197),,53.140726,23.233353,1,
198,198,42. Pułku Piechoty/Zacisze Dolistówki(198),,53.141850,23.222690,1,
199,199,42. Pułku Piechoty/Zakład Poprawczy(199),,53.142790,23.214014,1,
1624,1624,Kuriany I (K)(1624),,53.083814,23.256891,2,
1628,1628,Kuriany II (K)(1628),,53.086553,23.255984,2,
1872,1872,Solniczki I (N)(1872),,53.070383,23.208160,2,
1404,1404,Sowlany/Ładna (B)(1404),,53.148268,23.244780,1,
1403,1403,Sowlany/Ładna(1403),,53.148970,23.245207,1,
1402,1402,Sowlany/Alejkowa (B)(1402),,53.142200,23.243118,1,
1401,1401,Sowlany/Alejkowa(1401),,53.143053,23.243559,1,
1406,1406,Sowlany/Wiatrakowa (B)(1406),,53.152534,23.242901,1,
1405,1405,Sowlany/Wiatrakowa(1405),,53.152200,23.243295,1,
1415,1415,Henrykowo/Jubilerska(1415),,53.104075,23.295100,1,
1414,1414,Henrykowo/Świetlica(1414),,53.104743,23.287738,1,
1413,1413,Henrykowo/Brylantowa(1413),,53.105130,23.283150,1,
1412,1412,Sobolewo/Pętla(1412),,53.106563,23.269627,1,
1411,1411,Karakule/Kościoł (W)(1411),,53.178996,23.243338,1,
1894,1894,Solniczki II (N)(1894),,53.062450,23.210302,2,
1418,1418,Henrykowo/Pętla(1418),,53.102635,23.311485,1,
1417,1417,Henrykowo/Miedziana(1417),,53.103247,23.305190,1,
1416,1416,Henrykowo/Srebrna(1416),,53.103705,23.299611,1,
1670,1670,Dobrzyniewo Duże/Lipowa (B)(1670),,53.199840,23.011023,2,
1668,1668,Dobrzyniewo Duże/GCK (B)(1668),,53.204322,23.013632,2,
1667,1667,Wojszki nr 10(1667),,52.920867,23.211270,2,
1424,1424,Henrykowo/Platynowa(1424),,53.105250,23.281739,1,
1666,1666,Janowicze nr 1A(1666),,53.015851,23.165486,2,
1423,1423,Henrykowo/Perłowa(1423),,53.104960,23.285353,1,
1422,1422,Henrykowo/Bursztynowa(1422),,53.104533,23.290654,1,
1421,1421,Henrykowo/Jubilerska(1421),,53.104062,23.295635,1,
1420,1420,Henrykowo/Srebrna(1420),,53.103560,23.301835,1,
1682,1682,Dobrzyniewo Fabryczne/Królewska (B)(1682),,53.188189,23.061073,2,
1681,1681,Ogrodniki II(1681),,53.190781,23.050460,2,
1680,1680,Ogrodniki II (B)(1680),,53.190730,23.051356,2,
1679,1679,Ogrodniki(1679),,53.191039,23.045254,2,
1678,1678,Ogrodniki (B)(1678),,53.191041,23.044950,2,
1435,1435,Złotniki(1435),,52.975939,23.151521,2,
1677,1677,Dobrzyniewo Kościelne(1677),,53.192143,23.037485,2,
1434,1434,Tryczówka/Kościół(1434),,52.949899,23.160647,2,
1676,1676,Dobrzyniewo Kościelne (B)(1676),,53.192227,23.036328,2,
1675,1675,Dobrzyniewo Duże/Kościelna(1675),,53.198170,23.025142,2,
1674,1674,Dobrzyniewo Duże/Kościelna (B)(1674),,53.198115,23.025950,2,
1672,1672,Dobrzyniewo Duże/UG (B)(1672),,53.198585,23.019750,2,
1206,1206,Szerenosy(1206),,53.006300,23.095927,2,
1689,1689,Fasty/Dobrzyniewska(1689),,53.169455,23.063810,2,
1204,1204,Hołówki Małe(1204),,52.992044,23.098764,2,
1688,1688,Fasty/Dobrzyniewska(1688),,53.170022,23.063795,2,
1203,1203,Hołówki Duże(1203),,52.975110,23.088580,2,
1687,1687,Dobrzyniewo Fabryczne/Modrzewiowa(1687),,53.182228,23.064760,2,
1202,1202,Simuny(1202),,52.971026,23.104189,2,
1201,1201,Bogdanki nr 27(1201),,52.942380,23.153997,2,
1685,1685,Dobrzyniewo Fabryczne(1685),,53.185756,23.062994,2,
1684,1684,Dobrzyniewo Fabryczne (B)(1684),,53.183948,23.063777,2,
1683,1683,Dobrzyniewo Fabryczne/Królewska(1683),,53.188525,23.060913,2,
1209,1209,Wojszki/Wieś(1209),,52.928090,23.211975,2,
1208,1208,Juchnowiec Przejazd(1208),,53.007701,23.123279,2,
1207,1207,Juchnowiec Dolny(1207),,53.006009,23.116834,2,
